{
"type": "FeatureCollection",
"name": "Senior_Housing",
"crs": { "type": "name", "properties": { "name": "urn:ogc:def:crs:OGC:1.3:CRS84" } },
"features": [
{ "type": "Feature", "properties": { "OBJECTID": 1, "Name": "Alice Manor Senior Housing", "Address": "10325 Grandee Ave", "City": "Los Angeles", "State": "CA", "Zipcode": "90002", "Lat": 33.9424671, "Lon": -118.2441085, "GlobalID": "24f082df-6458-4915-bfdf-b6c7f019da1a" }, "geometry": { "type": "Point", "coordinates": [ -118.244108500007002, 33.9424671001766 ] } },
{ "type": "Feature", "properties": { "OBJECTID": 2, "Name": "Andalucia Senior Apartments", "Address": "15305 Lanark St.", "City": "Van Nuys", "State": "CA", "Zipcode": "91406", "Lat": 34.2180013, "Lon": -118.4675276, "GlobalID": "f73fb08f-37ff-4a72-8dd7-3b7f3b26a08c" }, "geometry": { "type": "Point", "coordinates": [ -118.467527600219, 34.218001299620298 ] } },
{ "type": "Feature", "properties": { "OBJECTID": 3, "Name": "Angelus Plaza Senior Housing", "Address": "255 S. Hill St", "City": "Los Angeles", "State": "CA", "Zipcode": "90012", "Lat": 34.0518361, "Lon": -118.2496059, "GlobalID": "81935a25-6698-487a-9eff-b0c00a9818ea" }, "geometry": { "type": "Point", "coordinates": [ -118.249605900092007, 34.0518361003558 ] } },
{ "type": "Feature", "properties": { "OBJECTID": 4, "Name": "Asturias Senior Apartments", "Address": "9628 Van Nuys Blvd", "City": "Panorama City", "State": "CA", "Zipcode": "91402", "Lat": 34.2454615, "Lon": -118.4496964, "GlobalID": "6af1ef5b-1fc8-4c6c-ab9c-165cad32712e" }, "geometry": { "type": "Point", "coordinates": [ -118.449696400269005, 34.245461500248098 ] } },
{ "type": "Feature", "properties": { "OBJECTID": 5, "Name": "Avalon Place", "Address": "10803 Avalon Blvd.", "City": "Los Angeles", "State": "CA", "Zipcode": "90061", "Lat": 33.93782, "Lon": -118.265556, "GlobalID": "2c73267b-f8bf-4225-b0ee-91fe3b86a960" }, "geometry": { "type": "Point", "coordinates": [ -118.265555999810005, 33.937820000092998 ] } },
{ "type": "Feature", "properties": { "OBJECTID": 6, "Name": "Bayside Terrace", "Address": "860 W. 5th Street", "City": "San Pedro", "State": "CA", "Zipcode": "90731", "Lat": 33.7399641, "Lon": -118.2959054, "GlobalID": "15e90f19-5573-4d1b-ad02-deb99038b76f" }, "geometry": { "type": "Point", "coordinates": [ -118.295905400213996, 33.739964100263101 ] } },
{ "type": "Feature", "properties": { "OBJECTID": 7, "Name": "Bethany Towers", "Address": "1745 Gramercy Pl", "City": "Los Angeles", "State": "CA", "Zipcode": "90028", "Lat": 34.1030773, "Lon": -118.3127526, "GlobalID": "1bfe002a-69f1-4a60-b251-3fc084d95b79" }, "geometry": { "type": "Point", "coordinates": [ -118.312752599752997, 34.103077299577798 ] } },
{ "type": "Feature", "properties": { "OBJECTID": 8, "Name": "Broadway Villas", "Address": "9413 S. Spring Street", "City": "Los Angeles", "State": "CA", "Zipcode": "90003", "Lat": 33.9503615, "Lon": -118.2768491, "GlobalID": "210f9c0b-6bd7-48eb-a485-da30e53bf1a3" }, "geometry": { "type": "Point", "coordinates": [ -118.276849099705998, 33.950361500183099 ] } },
{ "type": "Feature", "properties": { "OBJECTID": 9, "Name": "Buckingham Senior Apartment", "Address": "4020 Buckingham Rd", "City": "Los Angeles", "State": "CA", "Zipcode": "90008", "Lat": 34.013739, "Lon": -118.342106, "GlobalID": "dbbd58fe-432b-46ed-9ca0-822d5a8d6fc7" }, "geometry": { "type": "Point", "coordinates": [ -118.342106000092002, 34.013739000054798 ] } },
{ "type": "Feature", "properties": { "OBJECTID": 11, "Name": "Cantabria Senior Apartments", "Address": "9640 Van Nuys Blvd.", "City": "Panorama City", "State": "CA", "Zipcode": "91402", "Lat": 34.2453802, "Lon": -118.4490037, "GlobalID": "9d2f2294-a91a-44ec-b7d9-3f3c4ba090d2" }, "geometry": { "type": "Point", "coordinates": [ -118.449003700161001, 34.245380199736502 ] } },
{ "type": "Feature", "properties": { "OBJECTID": 12, "Name": "Casa Garcia", "Address": "499 S. Kalisher St.", "City": "San Fernando", "State": "CA", "Zipcode": "91340", "Lat": 34.2837461, "Lon": -118.4466595, "GlobalID": "749338f7-653c-487d-bd51-abc193a20e18" }, "geometry": { "type": "Point", "coordinates": [ -118.446659500335997, 34.2837461002024 ] } },
{ "type": "Feature", "properties": { "OBJECTID": 13, "Name": "Casa Lucerna", "Address": "1025 S Kern Ave", "City": "Los Angeles", "State": "CA", "Zipcode": "90022", "Lat": 34.0198063, "Lon": -118.1666682, "GlobalID": "97c79572-ecd3-4a7d-8c40-602ab7435347" }, "geometry": { "type": "Point", "coordinates": [ -118.166668199678, 34.019806299621102 ] } },
{ "type": "Feature", "properties": { "OBJECTID": 14, "Name": "Casa Panorama", "Address": "14555 Osborne St", "City": "Panarama City", "State": "CA", "Zipcode": "91402", "Lat": 34.2335766, "Lon": -118.4496404, "GlobalID": "abbbc010-7e38-4fcc-91c4-1eb627b89ba7" }, "geometry": { "type": "Point", "coordinates": [ -118.449640400383998, 34.233576599680397 ] } },
{ "type": "Feature", "properties": { "OBJECTID": 15, "Name": "Clark Terrace", "Address": "1156 S. Clark Drive", "City": "Los Angeles", "State": "CA", "Zipcode": "90035", "Lat": 34.055571, "Lon": -118.384433, "GlobalID": "e8ce705f-ba5a-451d-9fa9-2ab3e6ba3329" }, "geometry": { "type": "Point", "coordinates": [ -118.384432999582998, 34.055571000101601 ] } },
{ "type": "Feature", "properties": { "OBJECTID": 16, "Name": "Clemson/Corbett Senior Apartments", "Address": "5643 Corbett St", "City": "Los Angeles", "State": "CA", "Zipcode": "90016", "Lat": 34.025044, "Lon": -118.368037, "GlobalID": "b918c3a9-8d9a-42fa-bfee-9fd2ca9965ac" }, "geometry": { "type": "Point", "coordinates": [ -118.368036999807998, 34.025043999780799 ] } },
{ "type": "Feature", "properties": { "OBJECTID": 17, "Name": "Colorado Terrace Senior Apts.", "Address": "2455 Colorado Blvd", "City": "Eagle Rock", "State": "CA", "Zipcode": "90041", "Lat": 34.1415062, "Lon": -118.2204122, "GlobalID": "2efad5c7-e983-4c5f-aecf-de10e66c1314" }, "geometry": { "type": "Point", "coordinates": [ -118.220412199563, 34.141506200251001 ] } },
{ "type": "Feature", "properties": { "OBJECTID": 18, "Name": "Coronel Village Apartments", "Address": "935 South Boyle Ave", "City": "Los Angeles", "State": "CA", "Zipcode": "90023", "Lat": 34.035258, "Lon": -118.219422, "GlobalID": "6e65559e-2749-43f1-b208-0bea429c6f54" }, "geometry": { "type": "Point", "coordinates": [ -118.219422000124993, 34.035257999557103 ] } },
{ "type": "Feature", "properties": { "OBJECTID": 19, "Name": "Crescent Arms", "Address": "1709 W. 8th Street", "City": "Los Angeles", "State": "CA", "Zipcode": "90017", "Lat": 34.0530739, "Lon": -118.2736331, "GlobalID": "bdcf368b-a757-4d15-856a-463ff4d264db" }, "geometry": { "type": "Point", "coordinates": [ -118.273633099788, 34.0530739002403 ] } },
{ "type": "Feature", "properties": { "OBJECTID": 20, "Name": "Crescent Village Apartments", "Address": "731 Beacon Ave.", "City": "Los Angeles", "State": "CA", "Zipcode": "90017", "Lat": 34.0536271, "Lon": -118.2731569, "GlobalID": "3cedc057-4e09-49ed-b2cf-eb247f8fd86f" }, "geometry": { "type": "Point", "coordinates": [ -118.273156899770996, 34.053627100210598 ] } },
{ "type": "Feature", "properties": { "OBJECTID": 21, "Name": "Crescent Village Apartments", "Address": "746 S Burlington Ave.", "City": "Los Angeles", "State": "CA", "Zipcode": "90057", "Lat": 34.0537296, "Lon": -118.2740542, "GlobalID": "fb068598-869c-4e26-b8ec-2bd9c869cfab" }, "geometry": { "type": "Point", "coordinates": [ -118.274054200140995, 34.053729600440803 ] } },
{ "type": "Feature", "properties": { "OBJECTID": 22, "Name": "Crescent Village Apartments", "Address": "1721 West 8th Street", "City": "Los Angeles", "State": "CA", "Zipcode": "90017", "Lat": 34.053422, "Lon": -118.274028, "GlobalID": "1acd8910-8760-4fb0-92d2-7f667fd196e1" }, "geometry": { "type": "Point", "coordinates": [ -118.274028000192004, 34.053421999925398 ] } },
{ "type": "Feature", "properties": { "OBJECTID": 23, "Name": "Cresent Arms", "Address": "1709 W 8th Street #1124", "City": "Los Angeles", "State": "CA", "Zipcode": "90017", "Lat": 34.0530739, "Lon": -118.2736331, "GlobalID": "5ae1b566-e474-4457-a5a6-91c13fdd83e0" }, "geometry": { "type": "Point", "coordinates": [ -118.273633099788, 34.0530739002403 ] } },
{ "type": "Feature", "properties": { "OBJECTID": 24, "Name": "Dunbar Village", "Address": "4225 S. Central Ave", "City": "Los Angeles", "State": "CA", "Zipcode": "90011", "Lat": 34.006855, "Lon": -118.256825, "GlobalID": "b4691aaa-051c-4484-8032-068f047a7cfe" }, "geometry": { "type": "Point", "coordinates": [ -118.256825000074002, 34.006855000058202 ] } },
{ "type": "Feature", "properties": { "OBJECTID": 25, "Name": "Fairwinds - West Hills", "Address": "8138 Woodlake Ave", "City": "West Hills", "State": "CA", "Zipcode": "91304", "Lat": 34.2183345, "Lon": -118.6315157, "GlobalID": "41a813f7-598c-458b-b114-ef3ef2894c69" }, "geometry": { "type": "Point", "coordinates": [ -118.631515699990004, 34.218334500237098 ] } },
{ "type": "Feature", "properties": { "OBJECTID": 26, "Name": "Fickett Towers", "Address": "14801 Sherman Way", "City": "Van Nuys", "State": "CA", "Zipcode": "91405", "Lat": 34.2017874, "Lon": -118.4554439, "GlobalID": "ff3104a4-4255-451d-bc25-6f82bd01616f" }, "geometry": { "type": "Point", "coordinates": [ -118.455443900015993, 34.201787399968602 ] } },
{ "type": "Feature", "properties": { "OBJECTID": 27, "Name": "Figueroa Senior Apartments", "Address": "7621 S. Figueroa Street", "City": "Los Angeles", "State": "CA", "Zipcode": "90003", "Lat": 33.970008, "Lon": -118.283066, "GlobalID": "80c3e2c0-ccba-4c92-ad84-ed15d31bed2c" }, "geometry": { "type": "Point", "coordinates": [ -118.283065999696007, 33.970007999669498 ] } },
{ "type": "Feature", "properties": { "OBJECTID": 28, "Name": "Freeman Villa", "Address": "1229 S. Westmoreland Ave", "City": "Los Angeles", "State": "CA", "Zipcode": "90006", "Lat": 34.048132, "Lon": -118.289559, "GlobalID": "b977f1ac-643a-44c0-b036-c4a609094de2" }, "geometry": { "type": "Point", "coordinates": [ -118.289558999647994, 34.048131999692103 ] } },
{ "type": "Feature", "properties": { "OBJECTID": 29, "Name": "Freeman Villa Apartments", "Address": "1229 Westmoreland Ave", "City": "Los Angeles", "State": "CA", "Zipcode": "90006", "Lat": 34.048132, "Lon": -118.289559, "GlobalID": "da8862f5-cc62-4d6a-ae76-00133b89fb48" }, "geometry": { "type": "Point", "coordinates": [ -118.289558999647994, 34.048131999692103 ] } },
{ "type": "Feature", "properties": { "OBJECTID": 30, "Name": "Glen Mary", "Address": "4733 N Figueroa St", "City": "Highland Park", "State": "CA", "Zipcode": "90042", "Lat": 34.101154, "Lon": -118.203868, "GlobalID": "c147c1f8-242f-4c95-af99-0fdc63491aa6" }, "geometry": { "type": "Point", "coordinates": [ -118.203867999607994, 34.101153999557503 ] } },
{ "type": "Feature", "properties": { "OBJECTID": 31, "Name": "Harvard Glenmary", "Address": "8711 S. Harvard Avenue", "City": "Los Angeles", "State": "CA", "Zipcode": "90047", "Lat": 33.9585622, "Lon": -118.3075459, "GlobalID": "9534969e-22ee-4f34-9718-161e4eeac04d" }, "geometry": { "type": "Point", "coordinates": [ -118.307545900123003, 33.9585622002854 ] } },
{ "type": "Feature", "properties": { "OBJECTID": 32, "Name": "Heritage Park at Woodman Senior Apts.", "Address": "7840 Woodman Ave.", "City": "Panorama City", "State": "CA", "Zipcode": "91402", "Lat": 34.2133486, "Lon": -118.4303348, "GlobalID": "95471318-02fe-4e2c-8119-c12524d8d0c2" }, "geometry": { "type": "Point", "coordinates": [ -118.430334799711005, 34.213348600357698 ] } },
{ "type": "Feature", "properties": { "OBJECTID": 33, "Name": "Hollenbeck Terrace", "Address": "610 S. St. Louis St", "City": "Los Angeles", "State": "CA", "Zipcode": "90023", "Lat": 34.0383532, "Lon": -118.2174583, "GlobalID": "85caf11f-4370-4a8d-9acb-23c6761d1442" }, "geometry": { "type": "Point", "coordinates": [ -118.217458299860994, 34.038353199840301 ] } },
{ "type": "Feature", "properties": { "OBJECTID": 34, "Name": "Hollywood Fountain North", "Address": "6233 Fountain Ave.", "City": "Los Angeles", "State": "CA", "Zipcode": "90028", "Lat": 34.094632, "Lon": -118.3256, "GlobalID": "8e4a1b0d-317f-4a21-86d7-06409782b990" }, "geometry": { "type": "Point", "coordinates": [ -118.325599999740007, 34.094632000066802 ] } },
{ "type": "Feature", "properties": { "OBJECTID": 35, "Name": "Hollywood Fountain South Apartments", "Address": "6222 Fountain Avenue", "City": "Los Angeles", "State": "CA", "Zipcode": "90028", "Lat": 34.094004, "Lon": -118.32526, "GlobalID": "2a5249d6-9304-4456-897e-67acb427d25d" }, "geometry": { "type": "Point", "coordinates": [ -118.325260000249003, 34.094003999884798 ] } },
{ "type": "Feature", "properties": { "OBJECTID": 36, "Name": "Horace Heidt Estates", "Address": "14155 Magnolia Blvd", "City": "Sherman Oaks", "State": "CA", "Zipcode": "91423", "Lat": 34.1657927, "Lon": -118.4418323, "GlobalID": "c83f0017-732b-42a4-bd17-0f1487fb7399" }, "geometry": { "type": "Point", "coordinates": [ -118.44183230022, 34.165792699673403 ] } },
{ "type": "Feature", "properties": { "OBJECTID": 37, "Name": "Independent Square", "Address": "2455 South St. Andrews Place", "City": "Los Angeles", "State": "CA", "Zipcode": "90018", "Lat": 34.0331245, "Lon": -118.3116193, "GlobalID": "013c8355-af71-45fc-9bf1-5fc3f3c59274" }, "geometry": { "type": "Point", "coordinates": [ -118.311619300190998, 34.033124500095703 ] } },
{ "type": "Feature", "properties": { "OBJECTID": 38, "Name": "Knob Hill Apartments", "Address": "2403 West 4th Street", "City": "Los Angeles", "State": "CA", "Zipcode": "90057", "Lat": 34.0642179, "Lon": -118.276671, "GlobalID": "1bb55e5b-09b5-4ddd-b6a7-dbc3c60b1d54" }, "geometry": { "type": "Point", "coordinates": [ -118.276670999767006, 34.064217899736299 ] } },
{ "type": "Feature", "properties": { "OBJECTID": 39, "Name": "La Coruna", "Address": "15301 Lanark Street", "City": "Van Nuys", "State": "CA", "Zipcode": "91406", "Lat": 34.2180232, "Lon": -118.4665261, "GlobalID": "15599932-1e4e-4d95-9132-b3b4a08b2d89" }, "geometry": { "type": "Point", "coordinates": [ -118.466526099899994, 34.218023199910803 ] } },
{ "type": "Feature", "properties": { "OBJECTID": 40, "Name": "La Graciela", "Address": "101 Park Ave", "City": "San Fernando", "State": "CA", "Zipcode": "91340", "Lat": 34.280371, "Lon": -118.43618, "GlobalID": "c77660ef-9941-402d-bbd2-fd3c26e17e74" }, "geometry": { "type": "Point", "coordinates": [ -118.436180000006999, 34.280371000321502 ] } },
{ "type": "Feature", "properties": { "OBJECTID": 41, "Name": "Laguna Senior Apartments", "Address": "4201 W. Sunset Blvd.", "City": "Los Angeles", "State": "CA", "Zipcode": "90029", "Lat": 34.0943233, "Lon": -118.2818356, "GlobalID": "d8a424e4-ed17-43cd-b5a4-f9143ebed680" }, "geometry": { "type": "Point", "coordinates": [ -118.281835600332997, 34.094323299680603 ] } },
{ "type": "Feature", "properties": { "OBJECTID": 42, "Name": "LDK Senior Apartments", "Address": "900 Crenshaw Blvd.", "City": "Los Angeles", "State": "CA", "Zipcode": "90019", "Lat": 34.0561034, "Lon": -118.3218157, "GlobalID": "8ce79e77-5aa3-49ad-926c-7d8d72f09c40" }, "geometry": { "type": "Point", "coordinates": [ -118.321815700233998, 34.056103399652201 ] } },
{ "type": "Feature", "properties": { "OBJECTID": 43, "Name": "LDK Senior Apartments - Studios", "Address": "540 S. Kingsley Dr.", "City": "Los Angeles", "State": "CA", "Zipcode": "90020", "Lat": 34.064167, "Lon": -118.302472, "GlobalID": "5b183fbd-f961-4bd9-abd2-6c301c644dc8" }, "geometry": { "type": "Point", "coordinates": [ -118.302471999782995, 34.064166999907201 ] } },
{ "type": "Feature", "properties": { "OBJECTID": 44, "Name": "LDK Senior Apartments – Studios", "Address": "900 Crenshaw Blvd.", "City": "Los Angeles", "State": "CA", "Zipcode": "90019", "Lat": 34.0561034, "Lon": -118.3218157, "GlobalID": "acc75bc3-efa5-4253-99c0-b3acb5e9b5a9" }, "geometry": { "type": "Point", "coordinates": [ -118.321815700233998, 34.056103399652201 ] } },
{ "type": "Feature", "properties": { "OBJECTID": 45, "Name": "Linda Vista Senior I", "Address": "630 S. St. Louis St.", "City": "Los Angeles", "State": "CA", "Zipcode": "90023", "Lat": 34.0378923, "Lon": -118.2179023, "GlobalID": "c7158220-a1b1-44e9-9ef5-2dd9c49131df" }, "geometry": { "type": "Point", "coordinates": [ -118.217902299651001, 34.0378922999897 ] } },
{ "type": "Feature", "properties": { "OBJECTID": 46, "Name": "Montecito Terraces", "Address": "14655 Blythe Street", "City": "Panorama City", "State": "CA", "Zipcode": "91402", "Lat": 34.2154511, "Lon": -118.4526463, "GlobalID": "862149c9-ecb7-4c3f-b199-f314874a8687" }, "geometry": { "type": "Point", "coordinates": [ -118.452646299787006, 34.215451100188098 ] } },
{ "type": "Feature", "properties": { "OBJECTID": 47, "Name": "Morgan Place", "Address": "7301 Crenshaw Blvd", "City": "Los Angeles", "State": "CA", "Zipcode": "90043", "Lat": 33.9733674, "Lon": -118.3313155, "GlobalID": "c49e01af-0a8f-47a6-9259-e57f1a2d349c" }, "geometry": { "type": "Point", "coordinates": [ -118.331315499810003, 33.9733674000855 ] } },
{ "type": "Feature", "properties": { "OBJECTID": 48, "Name": "Nantucket Creek", "Address": "9225 Topanga Cyn Blvd", "City": "Chatsworth", "State": "CA", "Zipcode": "91311", "Lat": 34.238018, "Lon": -118.6068262, "GlobalID": "5d987cef-e22d-4c73-b501-4eac36cd79e0" }, "geometry": { "type": "Point", "coordinates": [ -118.606826199969007, 34.238017999630998 ] } },
{ "type": "Feature", "properties": { "OBJECTID": 49, "Name": "NoHo Senior Villas", "Address": "5525 Klump Avenue", "City": "North Hollywood", "State": "CA", "Zipcode": "91601", "Lat": 34.170705, "Lon": -118.375502, "GlobalID": "6c7d46cd-0ed3-44b7-8c2e-5e479311c262" }, "geometry": { "type": "Point", "coordinates": [ -118.375501999617995, 34.170704999935801 ] } },
{ "type": "Feature", "properties": { "OBJECTID": 50, "Name": "Normandie Apartments", "Address": "6301 S Normandie Ave", "City": "Los Angeles", "State": "CA", "Zipcode": "90044", "Lat": 33.9819435, "Lon": -118.300568, "GlobalID": "0b18b862-0f89-443b-a371-2e9648b9324b" }, "geometry": { "type": "Point", "coordinates": [ -118.300568000113003, 33.981943499692797 ] } },
{ "type": "Feature", "properties": { "OBJECTID": 51, "Name": "Olive Manor Senior Apartments", "Address": "13115 Bromont Avenue", "City": "Sylmar", "State": "CA", "Zipcode": "91342", "Lat": 34.3091193, "Lon": -118.4360783, "GlobalID": "6c0542f3-c052-458a-a5b3-8d47848daac5" }, "geometry": { "type": "Point", "coordinates": [ -118.436078300172994, 34.3091192999158 ] } },
{ "type": "Feature", "properties": { "OBJECTID": 52, "Name": "Osborne Street Apartments", "Address": "12059 Osborne Street", "City": "Sylmar", "State": "CA", "Zipcode": "91342", "Lat": 34.2725121, "Lon": -118.3956393, "GlobalID": "0c22300e-7d48-42ff-a979-a630e73a13e5" }, "geometry": { "type": "Point", "coordinates": [ -118.395639299614004, 34.2725121001533 ] } },
{ "type": "Feature", "properties": { "OBJECTID": 53, "Name": "Owensmouth Gardens", "Address": "6300 Owensmouth Ave", "City": "Woodland Hills", "State": "CA", "Zipcode": "91367", "Lat": 34.1851918, "Lon": -118.600273, "GlobalID": "a2ab064a-8b79-43dc-a6db-f627b8a6174e" }, "geometry": { "type": "Point", "coordinates": [ -118.600273000298998, 34.185191800161498 ] } },
{ "type": "Feature", "properties": { "OBJECTID": 54, "Name": "P & P Home", "Address": "1030 W. 85th Street", "City": "Los Angeles", "State": "CA", "Zipcode": "90044", "Lat": 33.960693, "Lon": -118.293404, "GlobalID": "bf65eef0-d3f3-480c-8363-eceb6f267cf4" }, "geometry": { "type": "Point", "coordinates": [ -118.293403999795004, 33.960692999982001 ] } },
{ "type": "Feature", "properties": { "OBJECTID": 55, "Name": "Palm Village Senior Housing", "Address": "9050 Laurel Canyon Blvd.", "City": "Sun Valley", "State": "CA", "Zipcode": "91352", "Lat": 34.2340908, "Lon": -118.4054863, "GlobalID": "f2250e31-f648-4065-9d79-4ed1422619d8" }, "geometry": { "type": "Point", "coordinates": [ -118.405486299553004, 34.234090799650701 ] } },
{ "type": "Feature", "properties": { "OBJECTID": 56, "Name": "Palomar Senior Apartments", "Address": "5473 Santa Monica Blvd", "City": "Los Angeles", "State": "CA", "Zipcode": "90029", "Lat": 34.091017, "Lon": -118.3086694, "GlobalID": "c6c69099-4261-49ce-a0bb-b3963414af4f" }, "geometry": { "type": "Point", "coordinates": [ -118.308669399772995, 34.091016999734798 ] } },
{ "type": "Feature", "properties": { "OBJECTID": 57, "Name": "Park Plaza Senior Apartments", "Address": "6755 Rhodes Avenue", "City": "North Hollywood", "State": "CA", "Zipcode": "91606", "Lat": 34.1934029, "Lon": -118.403669, "GlobalID": "074cc52d-296f-4345-a37c-365915672aaa" }, "geometry": { "type": "Point", "coordinates": [ -118.403668999923994, 34.193402900023798 ] } },
{ "type": "Feature", "properties": { "OBJECTID": 58, "Name": "Parkview on the Park Apartments", "Address": "626 South Alvardo Street", "City": "Los Angeles", "State": "CA", "Zipcode": "90057", "Lat": 34.0586376, "Lon": -118.2749522, "GlobalID": "34857349-3dcf-4dc6-a10d-6285e722a08b" }, "geometry": { "type": "Point", "coordinates": [ -118.274952200184003, 34.058637600145197 ] } },
{ "type": "Feature", "properties": { "OBJECTID": 59, "Name": "Parthenia II Apartments", "Address": "14920 Parthenia St.", "City": "Panorama City", "State": "CA", "Zipcode": "91402", "Lat": 34.2278957, "Lon": -118.4583856, "GlobalID": "2980f94d-6c68-4512-80f3-06657374824c" }, "geometry": { "type": "Point", "coordinates": [ -118.458385600414999, 34.227895700126503 ] } },
{ "type": "Feature", "properties": { "OBJECTID": 60, "Name": "Pico Wooster Senior Housing", "Address": "1425 S Wooster St", "City": "Los Angeles", "State": "CA", "Zipcode": "90035", "Lat": 34.0537707, "Lon": -118.3830575, "GlobalID": "6b421231-ee4b-4bee-8ab6-f6935d1fec68" }, "geometry": { "type": "Point", "coordinates": [ -118.383057500004, 34.053770700357603 ] } },
{ "type": "Feature", "properties": { "OBJECTID": 61, "Name": "Progressive Home for the Elderly", "Address": "7010 S. Denver Ave.", "City": "Los Angeles", "State": "CA", "Zipcode": "90061", "Lat": 33.9213929, "Lon": -118.2846455, "GlobalID": "68719b03-bc53-42fa-9ef8-29546c9450a2" }, "geometry": { "type": "Point", "coordinates": [ -118.284645499690001, 33.921392899962399 ] } },
{ "type": "Feature", "properties": { "OBJECTID": 62, "Name": "RHF Las Alturas", "Address": "3535 Whittier Blvd.", "City": "Los Angeles", "State": "CA", "Zipcode": "90023", "Lat": 34.026494, "Lon": -118.197163, "GlobalID": "dbcb3bcb-d76e-4321-ace4-481aa99f8a3a" }, "geometry": { "type": "Point", "coordinates": [ -118.197162999772999, 34.026494000098097 ] } },
{ "type": "Feature", "properties": { "OBJECTID": 63, "Name": "Ridgeview Manor", "Address": "14620 Gledhill Street", "City": "Panorama City", "State": "CA", "Zipcode": "91402", "Lat": 34.2410884, "Lon": -118.4510768, "GlobalID": "bdf91c37-9ecb-4f39-85b9-fef4ec05616e" }, "geometry": { "type": "Point", "coordinates": [ -118.451076800254, 34.241088400209499 ] } },
{ "type": "Feature", "properties": { "OBJECTID": 64, "Name": "Rittenhouse Square", "Address": "1100 E. 33rd Street", "City": "Los Angeles", "State": "CA", "Zipcode": "90011", "Lat": 34.0133851, "Lon": -118.2556865, "GlobalID": "a7870453-57be-46b4-9b84-57c56adb0d90" }, "geometry": { "type": "Point", "coordinates": [ -118.255686499731993, 34.013385099742599 ] } },
{ "type": "Feature", "properties": { "OBJECTID": 65, "Name": "Rock View Apartments", "Address": "1139 Colorado Blvd.", "City": "Eagle Rock", "State": "CA", "Zipcode": "90041", "Lat": 34.137975, "Lon": -118.190837, "GlobalID": "40f98262-39fc-481e-b86a-d3ac4c9c46f4" }, "geometry": { "type": "Point", "coordinates": [ -118.190837000326994, 34.137974999646602 ] } },
{ "type": "Feature", "properties": { "OBJECTID": 66, "Name": "Rosa Parks Villas", "Address": "2507 S Bronson Avenue", "City": "Los Angeles", "State": "CA", "Zipcode": "90018", "Lat": 34.0343359, "Lon": -118.333398, "GlobalID": "dfb1036e-e54a-4ec0-87ef-e655c8241869" }, "geometry": { "type": "Point", "coordinates": [ -118.333397999618001, 34.034335900381599 ] } },
{ "type": "Feature", "properties": { "OBJECTID": 67, "Name": "Rosewood Gardens", "Address": "504 N Berendo St", "City": "Los Angeles", "State": "CA", "Zipcode": "90004", "Lat": 34.079327, "Lon": -118.2937058, "GlobalID": "072098fa-7a7b-472b-90fe-e0c6288216b9" }, "geometry": { "type": "Point", "coordinates": [ -118.293705799682996, 34.079327000240902 ] } },
{ "type": "Feature", "properties": { "OBJECTID": 68, "Name": "San Lucas Apartments", "Address": "1221 W. 7th Street", "City": "Los Angeles", "State": "CA", "Zipcode": "90017", "Lat": 34.0520618, "Lon": -118.2664136, "GlobalID": "1fd4bee9-0b5f-446e-9e85-eed7cdf3734f" }, "geometry": { "type": "Point", "coordinates": [ -118.266413599608001, 34.052061799612403 ] } },
{ "type": "Feature", "properties": { "OBJECTID": 69, "Name": "Seven Maples Senior Apartments", "Address": "2618 W. 7th St.", "City": "Los Angeles", "State": "CA", "Zipcode": "90057", "Lat": 34.058967, "Lon": -118.28305, "GlobalID": "b06334df-da53-40af-bc5f-f110139e2ea9" }, "geometry": { "type": "Point", "coordinates": [ -118.283049999857994, 34.0589670002269 ] } },
{ "type": "Feature", "properties": { "OBJECTID": 70, "Name": "Simpson Saticoy", "Address": "7540 Simpson Avenue", "City": "North Hollywood", "State": "CA", "Zipcode": "91605", "Lat": 34.207758, "Lon": -118.388669, "GlobalID": "9e4c3cc7-3f6b-4852-a7aa-aa83324e382e" }, "geometry": { "type": "Point", "coordinates": [ -118.388668999775007, 34.2077579999318 ] } },
{ "type": "Feature", "properties": { "OBJECTID": 71, "Name": "Simpson Saticoy Apartments", "Address": "7541 Simpson Avenue", "City": "North Hollywood", "State": "CA", "Zipcode": "91605", "Lat": 34.207776, "Lon": -118.389509, "GlobalID": "e4e70afd-7591-440e-b88a-95cd5e176b70" }, "geometry": { "type": "Point", "coordinates": [ -118.389508999840004, 34.207775999862598 ] } },
{ "type": "Feature", "properties": { "OBJECTID": 72, "Name": "Steel Plaza Senior Apartments", "Address": "1711 West 3rd Street", "City": "Los Angeles", "State": "CA", "Zipcode": "90026", "Lat": 34.061188, "Lon": -118.2681939, "GlobalID": "44a96cbc-5e37-4449-9eba-62873c2a55b6" }, "geometry": { "type": "Point", "coordinates": [ -118.268193900227999, 34.061188000126201 ] } },
{ "type": "Feature", "properties": { "OBJECTID": 73, "Name": "St. James Manor", "Address": "615 S Gramercy Pl", "City": "Los Angeles", "State": "CA", "Zipcode": "90005", "Lat": 34.062931, "Lon": -118.313185, "GlobalID": "938cef8d-b24e-43b2-a432-683d6d555bfd" }, "geometry": { "type": "Point", "coordinates": [ -118.313185000087998, 34.062930999565999 ] } },
{ "type": "Feature", "properties": { "OBJECTID": 74, "Name": "Sunrise Senior Apartments", "Address": "5125 South Main Street", "City": "Los Angeles", "State": "CA", "Zipcode": "90037", "Lat": 33.996121, "Lon": -118.274326, "GlobalID": "0b3cfa41-4024-4f2c-acdc-77283a4928d4" }, "geometry": { "type": "Point", "coordinates": [ -118.274326000445001, 33.9961209996844 ] } },
{ "type": "Feature", "properties": { "OBJECTID": 75, "Name": "Sylmar Villas", "Address": "15878 Larkspur St", "City": "Sylmar", "State": "CA", "Zipcode": "91342", "Lat": 34.303238, "Lon": -118.4773021, "GlobalID": "ce2f8155-f5e9-4819-badd-d7e76a29758e" }, "geometry": { "type": "Point", "coordinates": [ -118.477302100412004, 34.303237999933799 ] } },
{ "type": "Feature", "properties": { "OBJECTID": 76, "Name": "The Boulevard", "Address": "20600 Ventura Blvd", "City": "Woodland Hills", "State": "CA", "Zipcode": "91364", "Lat": 34.1669393, "Lon": -118.5817794, "GlobalID": "224284b0-7ee9-474f-96a1-9540064976ae" }, "geometry": { "type": "Point", "coordinates": [ -118.581779400198997, 34.166939300208597 ] } },
{ "type": "Feature", "properties": { "OBJECTID": 77, "Name": "The Piedmont", "Address": "6750 Whitsett", "City": "North Hollywood", "State": "CA", "Zipcode": "91606", "Lat": 34.1933099, "Lon": -118.4043911, "GlobalID": "2b5ff038-afa2-4fed-908b-7d4601f81efe" }, "geometry": { "type": "Point", "coordinates": [ -118.404391099769001, 34.193309900231803 ] } },
{ "type": "Feature", "properties": { "OBJECTID": 78, "Name": "Tesoro Apartments", "Address": "11415 Porter Ranch Drive", "City": "Northridge", "State": "CA", "Zipcode": "91326", "Lat": 34.27888, "Lon": -118.574175, "GlobalID": "cb5dabd0-2bc8-4a09-9147-81ef7fdd68d9" }, "geometry": { "type": "Point", "coordinates": [ -118.574175000075996, 34.2788799999121 ] } },
{ "type": "Feature", "properties": { "OBJECTID": 79, "Name": "The Don Senior Apt.", "Address": "105 East I St.", "City": "Wilmington", "State": "CA", "Zipcode": "90744", "Lat": 33.781526, "Lon": -118.26217, "GlobalID": "46b7113b-554e-4749-84c6-adedef59a541" }, "geometry": { "type": "Point", "coordinates": [ -118.262170000145005, 33.781525999725098 ] } },
{ "type": "Feature", "properties": { "OBJECTID": 80, "Name": "The Metro at Chinatown", "Address": "808 N. Spring Street", "City": "Los Angeles", "State": "CA", "Zipcode": "90012", "Lat": 34.0619779, "Lon": -118.2365939, "GlobalID": "0d53a5cc-dfcb-4e3e-8f66-a52c9961ebec" }, "geometry": { "type": "Point", "coordinates": [ -118.236593899889002, 34.061977899860302 ] } },
{ "type": "Feature", "properties": { "OBJECTID": 81, "Name": "The Metro at Hollywood", "Address": "5555 Hollywood Blvd.", "City": "Los Angeles", "State": "CA", "Zipcode": "90028", "Lat": 34.1019859, "Lon": -118.311147, "GlobalID": "8b61238d-5459-48b1-ae59-853332dc8a41" }, "geometry": { "type": "Point", "coordinates": [ -118.311146999634005, 34.101985900329097 ] } },
{ "type": "Feature", "properties": { "OBJECTID": 82, "Name": "The Metro At Hollywood Senior Apts", "Address": "1717 Garfield Place", "City": "Los Angeles", "State": "CA", "Zipcode": "90028", "Lat": 34.1022441, "Lon": -118.3111495, "GlobalID": "45f3a420-b885-4182-a932-44a3ae09e7c2" }, "geometry": { "type": "Point", "coordinates": [ -118.311149499750002, 34.102244100185104 ] } },
{ "type": "Feature", "properties": { "OBJECTID": 83, "Name": "The Piedmont", "Address": "6750 Whitsett", "City": "North Hollywood", "State": "CA", "Zipcode": "91606", "Lat": 34.1933099, "Lon": -118.4043911, "GlobalID": "16097b1d-3842-4d52-a1f0-fc7be4330fef" }, "geometry": { "type": "Point", "coordinates": [ -118.404391099769001, 34.193309900231803 ] } },
{ "type": "Feature", "properties": { "OBJECTID": 84, "Name": "Triangle Square Senior Apartments", "Address": "1602 Ivar Ave", "City": "Los Angeles", "State": "CA", "Zipcode": "90028", "Lat": 34.1001402, "Lon": -118.3277528, "GlobalID": "bb6dda5d-013b-428d-88e1-b3f15323afbf" }, "geometry": { "type": "Point", "coordinates": [ -118.327752799552002, 34.100140200110197 ] } },
{ "type": "Feature", "properties": { "OBJECTID": 85, "Name": "Valley Pride Village Apartments", "Address": "13200 Bromont Avenue", "City": "Sylmar", "State": "CA", "Zipcode": "91342", "Lat": 34.3109766, "Lon": -118.4369704, "GlobalID": "5d033b5a-7245-4850-90df-2132c349e4e1" }, "geometry": { "type": "Point", "coordinates": [ -118.436970399763993, 34.310976599590397 ] } },
{ "type": "Feature", "properties": { "OBJECTID": 86, "Name": "Vermont Senior Housing", "Address": "3901 S. Vermont Ave.", "City": "Los Angeles", "State": "CA", "Zipcode": "90037", "Lat": 34.0148049, "Lon": -118.291862, "GlobalID": "c0632cda-3537-4215-b560-33de39b9c669" }, "geometry": { "type": "Point", "coordinates": [ -118.291861999730997, 34.014804899926197 ] } },
{ "type": "Feature", "properties": { "OBJECTID": 87, "Name": "Vintage Crossing Senior Apartments", "Address": "6830 Jordan Avenue", "City": "Canoga Park", "State": "CA", "Zipcode": "91303", "Lat": 34.1946603, "Lon": -118.6022362, "GlobalID": "e67f918d-e774-4420-b30b-996eaed743e0" }, "geometry": { "type": "Point", "coordinates": [ -118.602236199640998, 34.194660299733101 ] } },
{ "type": "Feature", "properties": { "OBJECTID": 88, "Name": "Ward Villas", "Address": "1177 W Adams Blvd", "City": "Los Angeles", "State": "CA", "Zipcode": "90007", "Lat": 34.0329549, "Lon": -118.2853717, "GlobalID": "bedddbbd-9221-432c-af79-d3ba4294bff6" }, "geometry": { "type": "Point", "coordinates": [ -118.285371700444003, 34.0329548996489 ] } },
{ "type": "Feature", "properties": { "OBJECTID": 89, "Name": "Werner Illing House", "Address": "1924 Argyle Avenue", "City": "Los Angeles", "State": "CA", "Zipcode": "90068", "Lat": 34.1060583, "Lon": -118.3248526, "GlobalID": "4c6eb8fb-a6a7-4543-97c4-6fdd7e5c412f" }, "geometry": { "type": "Point", "coordinates": [ -118.324852600167006, 34.106058300350398 ] } },
{ "type": "Feature", "properties": { "OBJECTID": 90, "Name": "West Angeles Senior Villas", "Address": "6030 Crenshaw Blvd", "City": "Los Angeles", "State": "CA", "Zipcode": "90043", "Lat": 33.984329, "Lon": -118.330372, "GlobalID": "ea9a3557-9490-4e1d-b331-78841e9d2698" }, "geometry": { "type": "Point", "coordinates": [ -118.330372000368001, 33.984328999983397 ] } },
{ "type": "Feature", "properties": { "OBJECTID": 91, "Name": "Willis Avenue Apartments", "Address": "14731 Rayen Street", "City": "Panorama City", "State": "CA", "Zipcode": "91402", "Lat": 34.2320354, "Lon": -118.4548448, "GlobalID": "5e40894b-11b8-42f8-ae44-8b46406f3e27" }, "geometry": { "type": "Point", "coordinates": [ -118.454844800447006, 34.2320354000137 ] } },
{ "type": "Feature", "properties": { "OBJECTID": 92, "Name": "Wilshire Towers", "Address": "616 South Normandie Ave", "City": "Los Angeles", "State": "CA", "Zipcode": "90005", "Lat": 34.062844, "Lon": -118.300003, "GlobalID": "3002beed-27e2-46fe-a31b-43683fff2b94" }, "geometry": { "type": "Point", "coordinates": [ -118.300003000138005, 34.062844000050603 ] } }
]
}
